{
"type": "FeatureCollection",
"name": "narasaka_pois",
"crs": { "type": "name", "properties": { "name": "urn:ogc:def:crs:OGC:1.3:CRS84" } },
"features": [
{ "type": "Feature", "properties": { "fid": 1, "name": "黄金畑", "ruby": "こがねばた", "type": "地名", "image": null, "description": null }, "geometry": { "type": "Point", "coordinates": [ 135.832843652964982, 34.702290811489448 ] } },
{ "type": "Feature", "properties": { "fid": 2, "name": "清水池", "ruby": "しみずいけ", "type": "池跡", "image": null, "description": "1992年に池を埋め立てて児童公園になっている。" }, "geometry": { "type": "Point", "coordinates": [ 135.833884767201852, 34.7026531385483 ] } },
{ "type": "Feature", "properties": { "fid": 3, "name": "平野", "ruby": "ひらの", "type": "地名", "image": null, "description": "坊目拙解によると、「伊賀路を平野と号す。これは即ち平城(ナラ)野」の言縁(訛り)である」とされている。奈良阪町史ではここに平野という地名が記されているが、小字の「平野」との関係は不明。" }, "geometry": { "type": "Point", "coordinates": [ 135.837444112159318, 34.704045748036052 ] } },
{ "type": "Feature", "properties": { "fid": 4, "name": "亀の池", "ruby": "かめのいけ", "type": "池跡", "image": null, "description": "伊賀・伊勢街道の平野に通じる道筋に位置し、高台に位置する池であった。1975年頃に住宅開発。" }, "geometry": { "type": "Point", "coordinates": [ 135.837545028384369, 34.701477429696652 ] } },
{ "type": "Feature", "properties": { "fid": 5, "name": "瓢箪池", "ruby": "ひょうたんいけ", "type": "池跡", "image": null, "description": "京都への旧街道筋東側に、瓢箪の形をした池があった。" }, "geometry": { "type": "Point", "coordinates": [ 135.83228772380528, 34.707446816957216 ] } },
{ "type": "Feature", "properties": { "fid": 6, "name": "生田池", "ruby": "いけたいけ", "type": "池跡", "image": null, "description": "想定位置、正確な位置不明。城山の南、元明天皇陵の裏に位置する。埋め立てられて鉄工所となった。" }, "geometry": { "type": "Point", "coordinates": [ 135.829995418778566, 34.706275793644124 ] } },
{ "type": "Feature", "properties": { "fid": 7, "name": "万歳池", "ruby": "まんざいいけ", "type": "池跡", "image": null, "description": "1978年に始まった住宅開発で埋め立てられ、奈良阪北児童公園になっている。" }, "geometry": { "type": "Point", "coordinates": [ 135.834042205801808, 34.706217932016813 ] } },
{ "type": "Feature", "properties": { "fid": 8, "name": "車谷", "ruby": "くるまたに", "type": "地名", "image": null, "description": null }, "geometry": { "type": "Point", "coordinates": [ 135.810171677245648, 34.701890969566257 ] } },
{ "type": "Feature", "properties": { "fid": 9, "name": "沢芝池", "ruby": "さわしばいけ", "type": "池跡", "image": null, "description": "晒場池とも。1979年頃、池を埋め立てて児童公園となっている。" }, "geometry": { "type": "Point", "coordinates": [ 135.834511450182163, 34.701277989553603 ] } },
{ "type": "Feature", "properties": { "fid": 10, "name": "南久保町の地蔵尊", "ruby": null, "type": "地蔵", "image": "jizodo_narasakacho.jpg", "description": "小さな化粧地蔵さんが数体おられる。毎年7月23～24日の地蔵祭には、南久保町の人達が地蔵さんを各自持ち帰り、個々の家で祀るという珍しい方法で祀られている。" }, "geometry": { "type": "Point", "coordinates": [ 135.834396271293429, 34.702391127555728 ] } },
{ "type": "Feature", "properties": { "fid": 11, "name": "立江地蔵尊", "ruby": null, "type": "地蔵", "image": "tatsue_jizoson.jpg", "description": "四国八十八ヶ所立江寺の地蔵尊を信仰する、町内の「立江講」により奉斎される。元々は現「奈良阪配水池」にあったものが、講中や町内の子供たち大勢に紅白の綱で引かれ、今の場所に移されたという。尊像は町内の石工、喜多氏が作成されたという。地蔵祭は毎年8月23日。" }, "geometry": { "type": "Point", "coordinates": [ 135.835313079380768, 34.702257564797648 ] } },
{ "type": "Feature", "properties": { "fid": 12, "name": "大日如来尊", "ruby": null, "type": "地蔵", "image": "narasaka_tatsue_entrance_jizo.jpg", "description": "地蔵尊が祀られているが、前の線香台には「大日如来」とある。堂内には「大正8年(1919)7月修復」と書かれた板切れがあった。" }, "geometry": { "type": "Point", "coordinates": [ 135.83537147759705, 34.702221105737031 ] } },
{ "type": "Feature", "properties": { "fid": 13, "name": "奈良阪配水場前の地蔵尊", "ruby": null, "type": "地蔵", "image": "IMG_8240.jpg", "description": "北向きに祀られた珍しい数体の化粧地蔵。大正時代、配水池の工事の時に出てきた地蔵さんを、ここに集めて祀ったという。" }, "geometry": { "type": "Point", "coordinates": [ 135.834995536290592, 34.70316921972281 ] } },
{ "type": "Feature", "properties": { "fid": 14, "name": "児川地蔵尊", "ruby": null, "type": "地蔵", "image": "kogawa_jizoson.jpg", "description": "川の上に祀られており、町内ではかなり古い方の地蔵さん。石の花立に「天保14年(1843)6月」の銘あり。7月23日の地蔵祭では、毎年金魚すくいが恒例であった。" }, "geometry": { "type": "Point", "coordinates": [ 135.835193648442186, 34.701666276267709 ] } },
{ "type": "Feature", "properties": { "fid": 15, "name": "元勝風谷の地蔵尊", "ruby": null, "type": "地蔵", "image": "IMG_8224.jpg", "description": "もともとは元勝風谷の北側里道ぎわにおられたが、1984年、勝風谷一帯の埋め立て計画の際に、西福寺の住職に念仏をお願いして、この場所へ移っていただいた。" }, "geometry": { "type": "Point", "coordinates": [ 135.834468827989838, 34.701136737620473 ] } },
{ "type": "Feature", "properties": { "fid": 16, "name": "奥の垣内の地蔵尊", "ruby": null, "type": "地蔵", "image": "IMG_8246.jpg", "description": "数多い地蔵さんの中に、1体首のないお地蔵さんがおられたが、町内の人が樟の木の周辺を整備した際、首の部分が出てきたという。" }, "geometry": { "type": "Point", "coordinates": [ 135.83405404520289, 34.704040654811898 ] } },
{ "type": "Feature", "properties": { "fid": 17, "name": "平の町・北の町の地蔵尊", "ruby": null, "type": "地蔵", "image": "jizo_near_narazuhiko_shrine.jpg", "description": "化粧地蔵であり、高さは台座ともで90cmあり、町内で一番大きい。台座に宝暦5年(1755)の刻銘がある。他に３０cm程度の石仏が7体堂内に同居。" }, "geometry": { "type": "Point", "coordinates": [ 135.834731731723849, 34.704843951220127 ] } },
{ "type": "Feature", "properties": { "fid": 18, "name": "勝風谷の地蔵尊", "ruby": null, "type": "地蔵", "image": "IMG_0328.jpg", "description": "お地蔵さんが金色に化粧されている。" }, "geometry": { "type": "Point", "coordinates": [ 135.831112374367279, 34.701808558571202 ] } },
{ "type": "Feature", "properties": { "fid": 19, "name": "黒髪山稲荷の地蔵堂", "ruby": null, "type": "地蔵", "image": "kurokami_inari_jizo.jpg", "description": null }, "geometry": { "type": "Point", "coordinates": [ 135.82566, 34.7017 ] } },
{ "type": "Feature", "properties": { "fid": 20, "name": "黒住大明神など", "ruby": null, "type": "石塚", "image": "kurozumi_daimyojin_etc.jpg", "description": "右から、「黒住大神」「石母」「豊川大明神」と刻まれた石碑が並ぶ。「黒住教」は「天照大神」を万物の根源とする、幕末の代表的な神道系宗教。" }, "geometry": { "type": "Point", "coordinates": [ 135.825701, 34.70172 ] } },
{ "type": "Feature", "properties": { "fid": 21, "name": "黒髪山稲荷神社", "ruby": null, "type": "神社", "image": "kurokamiyama_inari_torii.jpg", "description": "第11代垂仁天皇の皇后「狭穂姫」は、兄「狭穂彦王」が反逆の戦いを起こした祭に「稲ゆぎ(稲を積んだ応急陣地)」で王子を産んだ。姫は王子を天皇方に渡したが、その際天皇軍の捕り手に追われ、逃れるために黒髪を切り、古い衣をまとって人目を避け、危機を脱したという。その黒髪を埋めた場所、当地を「黒髪山」と称するようになった。のちに奈良～平安の頃、「稲城」の故事が稲荷に転じ、稲荷社を勧請したとされる。" }, "geometry": { "type": "Point", "coordinates": [ 135.825772, 34.701773 ] } },
{ "type": "Feature", "properties": { "fid": 22, "name": "奈保地蔵尊", "ruby": null, "type": "地蔵", "image": "19219.jpg", "description": "奈良阪町史に記載なし。" }, "geometry": { "type": "Point", "coordinates": [ 135.829187112925695, 34.70393770717353 ] } },
{ "type": "Feature", "properties": { "fid": 23, "name": "平の野・北向きの地蔵尊", "ruby": null, "type": "地蔵", "image": "19366.jpg", "description": "２体のお地蔵さんが祀られている。1955年前後に、バスを降りた大阪の信者が、「東方におられるお地蔵さんをお祀りせよ」と、この地の人に告げた。それを元に探し求めて、ここに祀ったという。" }, "geometry": { "type": "Point", "coordinates": [ 135.836255638214539, 34.704280085621157 ] } },
{ "type": "Feature", "properties": { "fid": 24, "name": "奈良豆比古神社", "ruby": "ならつひこじんじゃ", "type": "神社", "image": "Naratsuhiko-Jinja-Honden.jpg", "description": "現在のご祭神は、右殿八幡大神は施基親王、中殿大宮神殿は奈良豆彦神、左殿若宮神殿は春日王とされる。由来では、「宝亀2年(771)、光仁天皇の尊父施基親王を祀ったことに始まる。奈良津彦神はこの施基親王で、のちに田原天皇と追号。さらに同11年(780)、田原天皇の第二皇子春日王が、春日大社第四殿の「姫大神」を大宮として勧請し、その後保延2年(1136)に春日若宮を左座に迎え、「奈良坂春日三社」と号したというが、現祭神の並びと異同がある。寛政3年(1791)の『大和名所図会』では、境内に善城寺が描かれている。" }, "geometry": { "type": "Point", "coordinates": [ 135.834032181601145, 34.704370509754575 ] } },
{ "type": "Feature", "properties": { "fid": 25, "name": "西福寺", "ruby": "さいふくじ", "type": "寺院", "image": "Saifukuji-Nara-Sanmon.jpg", "description": "浄土宗。山号は迎接山。右手に元禄年間建立の薬師堂があり、薬師如来が安置。正面本堂の「阿弥陀如来立像」は平安時代の作で重要文化財。他に5体の、いずれも平安時代作の重要文化財の仏像がある。寺伝によると貞観年中(860頃)に慈覚大師・円仁が創立、当初は天台宗で唯心庵と唱えていた。慶長9年(1604)辮誉明雄上人が中興、浄土宗西福寺と改め、京都知恩院の末寺となった。" }, "geometry": { "type": "Point", "coordinates": [ 135.834303420496923, 34.704169858136162 ] } },
{ "type": "Feature", "properties": { "fid": 26, "name": "元明天皇陵", "ruby": null, "type": "陵墓", "image": "The_Tomb_of_Empress_Genmei.jpg", "description": "元明天皇奈保山東陵。元明天皇の陵墓は一時不明となり、かつてはウワナベ古墳に比定されていた。が、江戸時代に現陵付近から「函石」が発見され、幕末にここが元明天皇陵として比定された。" }, "geometry": { "type": "Point", "coordinates": [ 135.829666495760506, 34.705058148536402 ] } },
{ "type": "Feature", "properties": { "fid": 27, "name": "元正天皇陵", "ruby": null, "type": "陵墓", "image": "Tomb_of_Empress_Gensho.jpg", "description": "元正天皇奈保山西陵。元明天皇の陵墓は一時不明となり、かつてはコナベ古墳に比定されていた。が、慶応元年(1865)にここが元正天皇陵として比定された。" }, "geometry": { "type": "Point", "coordinates": [ 135.826209183604306, 34.705783736243632 ] } },
{ "type": "Feature", "properties": { "fid": 28, "name": "平野路", "ruby": null, "type": "道", "image": null, "description": "古代の伊賀・伊勢街道であり、古代「平城山」の東端に通じる古い道。" }, "geometry": { "type": "Point", "coordinates": [ 135.836032157361245, 34.704603966453078 ] } },
{ "type": "Feature", "properties": { "fid": 29, "name": "ぐれぐれ坂", "ruby": null, "type": "道", "image": null, "description": "奈良豆比古神社の北を西に行く細い道で、両天皇陵に通じる古道。「いろは坂」「ぐれぐれ(グネグネ?)坂」などと言い、曲がりくねった胸突き八丁の急坂。" }, "geometry": { "type": "Point", "coordinates": [ 135.833213817384689, 34.704721886495825 ] } },
{ "type": "Feature", "properties": { "fid": 30, "name": "出合い橋", "ruby": null, "type": "橋", "image": null, "description": "道が交差し、三叉路で行き交う人々が出会うので、「出合い」と言われるようになった。東に行くとぐれぐれ坂を経て伊賀・伊勢、西は暗峠を越えて大阪へつながる。川も「鹿川」と出合っていて、「出会川」とも呼ばれる木津川の上流である。" }, "geometry": { "type": "Point", "coordinates": [ 135.81987729174898, 34.709572697441139 ] } },
{ "type": "Feature", "properties": { "fid": 31, "name": "河清山", "ruby": "かわせやま", "type": "山", "image": null, "description": "想定場所、正確な場所は不明。松茸の生える赤松林で、シバ栗やアケビも取れたが、1978年からの住宅開発で失われた。公営プールの北側、「近隣公園」のところで一部に残る山に面影がある。" }, "geometry": { "type": "Point", "coordinates": [ 135.833860475808166, 34.707944763176222 ] } },
{ "type": "Feature", "properties": { "fid": 32, "name": "シャク井戸", "ruby": null, "type": "池跡", "image": null, "description": "想定場所、正確な場所は不明である。平野町から東谷へ下る道の道端に、弘法大師の井戸と呼ばれる「東谷のシャク井戸・弘法井戸」があった。弘法大師の指示で掘った井戸と言われ、周辺より高い台地にあったが水が湧き、この水を飲むと「シャックリが治る」とか、「杓で汲めるほど水が豊富」とかの謂れでシャク井戸と呼ばれた。昭和の初めごろまでは、この水でミカン水を造って売っていた店もあった。" }, "geometry": { "type": "Point", "coordinates": [ 135.835571062401442, 34.705027684895924 ] } },
{ "type": "Feature", "properties": { "fid": 33, "name": "金春塚", "ruby": "こんぱるづか", "type": "塚", "image": null, "description": "想定位置、正確な場所不明。河清山山麓の雑木林にかつて金春塚があったという。金春座の能楽師が、京都御所での能会に参加する旅路で奈良豆比古神社に立ち寄ったところ、神社の「父王翁の面」が欲しくなり盗んだ。里人に見つかり、捕まって殺され埋められたところとされる。" }, "geometry": { "type": "Point", "coordinates": [ 135.833275035446349, 34.707530597190193 ] } },
{ "type": "Feature", "properties": { "fid": 34, "name": "堂の池", "ruby": null, "type": "池跡", "image": null, "description": "想定位置、正確な場所不明。奈良豆比古神社境内の、石瓶神社南隣にあったとされる。昔ここに善城寺というお寺の御堂が建っていたとされる。" }, "geometry": { "type": "Point", "coordinates": [ 135.833998588072262, 34.704563835047715 ] } },
{ "type": "Feature", "properties": { "fid": 35, "name": "東谷池", "ruby": "ひがしたにいけ", "type": "池跡", "image": null, "description": "人の寄り付かない寂しい所で、冬になると真鴨が来ていた。1978年から住宅開発で埋め立てられた。" }, "geometry": { "type": "Point", "coordinates": [ 135.839157106515387, 34.704599637429205 ] } },
{ "type": "Feature", "properties": { "fid": 36, "name": "狼谷池", "ruby": "おおかみたにいけ", "type": "池跡", "image": null, "description": null }, "geometry": { "type": "Point", "coordinates": [ 135.837831673229289, 34.709184549486835 ] } },
{ "type": "Feature", "properties": { "fid": 37, "name": "安永二年(1773)道標", "ruby": null, "type": "道標", "image": null, "description": "安永2年(1773)設置。高さ3mもあり、年号のあるものとしては旧市内で2番目に古い道標。北に「太神宮」を案内し、街道が「いが いせ道」であることを示している。また、伊勢までおよそ27里であると示している。" }, "geometry": { "type": "Point", "coordinates": [ 135.846479993378097, 34.705564639572664 ] } },
{ "type": "Feature", "properties": { "fid": 38, "name": "弘化四年(1847)道標", "ruby": null, "type": "道標", "image": null, "description": "高さ170cm、幅30cm四方の道標。弘化4年(1847)7月、世話人花屋長四郎により建てられた。北に「京 うぢ」、東に「いが いせ」、南に「かすが 大ぶつ」を案内している。" }, "geometry": { "type": "Point", "coordinates": [ 135.834467012844073, 34.704655644649101 ] } },
{ "type": "Feature", "properties": { "fid": 39, "name": "立石", "ruby": "たていし", "type": "地名", "image": null, "description": "想定場所、正確な場所は不明。安永2年(1773)年に作られた、3mもある伊賀・伊勢路を示す道標のあるあたりの地名を、「立石」という。" }, "geometry": { "type": "Point", "coordinates": [ 135.846351431674719, 34.705563061896122 ] } },
{ "type": "Feature", "properties": { "fid": 40, "name": "釜屋辻子", "ruby": "かまやづし", "type": "道", "image": null, "description": "黒髪稲荷神社に行く近道で、奈良市が設定した「歴史の道」となっている。" }, "geometry": { "type": "Point", "coordinates": [ 135.834667709756928, 34.70372442661867 ] } },
{ "type": "Feature", "properties": { "fid": 41, "name": "鹿川隧道", "ruby": null, "type": "道", "image": null, "description": "明治31年(1898)大仏鉄道の奈良～加茂間が開通、小字舞台で沢ノ川を横断するためにこのレンガ造りのトンネルが造られた。" }, "geometry": { "type": "Point", "coordinates": [ 135.828510171888269, 34.709678585285616 ] } },
{ "type": "Feature", "properties": { "fid": 42, "name": "テエヤンの店", "ruby": null, "type": "店", "image": null, "description": "テエヤンは故平田捨吉氏。安政2年(1855)生まれの人で、ステヤンと呼ばれていたのがなまってテエヤンとなった。餅や団子を街道の行人にふるまう店を営んでおり、誰にでも愛想よく振舞い、話好きであったため、店は情報の収集発信の基地として機能したという。" }, "geometry": { "type": "Point", "coordinates": [ 135.83372980096533, 34.705570559283224 ] } },
{ "type": "Feature", "properties": { "fid": 43, "name": "黒髪大明神道標", "ruby": null, "type": "道標", "image": null, "description": "高さ1m。黒髪稲荷神社への道標。明治28年(1895)建立。" }, "geometry": { "type": "Point", "coordinates": [ 135.834834002195578, 34.70371474265081 ] } },
{ "type": "Feature", "properties": { "fid": 44, "name": "青葉台ゴルフ場地蔵堂", "ruby": null, "type": "地蔵", "image": "IMG_0698.jpg", "description": "奈良阪町史に記載なし。" }, "geometry": { "type": "Point", "coordinates": [ 135.831617999778985, 34.712175584508721 ] } },
{ "type": "Feature", "properties": { "fid": 45, "name": "県道沿いの地蔵", "ruby": null, "type": "地蔵", "image": "19359.jpg", "description": "奈良阪町史に記載なし。" }, "geometry": { "type": "Point", "coordinates": [ 135.835359369049655, 34.704314546256533 ] } },
{ "type": "Feature", "properties": { "fid": 46, "name": "湯の尻坂", "ruby": null, "type": "道", "image": null, "description": "西久保町から、黒髪稲荷に通じる道に合流する坂道。" }, "geometry": { "type": "Point", "coordinates": [ 135.831306031262159, 34.703737615402758 ] } },
{ "type": "Feature", "properties": { "fid": 47, "name": "平の町・北の町の常夜燈", "ruby": null, "type": "灯籠", "image": "jizo_near_narazuhiko_shrine_light.jpg", "description": "文政11年(1828)9月、河内の杉澤佐兵衛が二月堂に奉献した常夜燈。" }, "geometry": { "type": "Point", "coordinates": [ 135.834753176417024, 34.704803949060079 ] } },
{ "type": "Feature", "properties": { "fid": 48, "name": "夕日地蔵", "ruby": null, "type": "地蔵", "image": null, "description": "西福寺境内に西向きに立つ。元禄16年(1703)の銘がある。元は字高座にあり、「高座の地蔵さん」とも呼ばれている。" }, "geometry": { "type": "Point", "coordinates": [ 135.834460653043692, 34.704245073899621 ] } },
{ "type": "Feature", "properties": { "fid": 49, "name": "桜榮講の常夜燈", "ruby": "", "type": "灯籠", "image": null, "description": "桜榮講という大峰山の講による奉納。天保6年(1835)11月建立。" }, "geometry": { "type": "Point", "coordinates": [ 135.834575333770232, 34.704246535699085 ] } },
{ "type": "Feature", "properties": { "fid": 50, "name": "佐保山の常夜燈", "ruby": null, "type": "灯籠", "image": null, "description": "大峰山の講である佐保山講による奉納。文政11年(1828)8月建立。" }, "geometry": { "type": "Point", "coordinates": [ 135.834584536960648, 34.704206720456142 ] } },
{ "type": "Feature", "properties": { "fid": 51, "name": "梵字石塔婆", "ruby": null, "type": "石塔婆", "image": "Saifukuji-Nara-Myogo.jpg", "description": "元禄15年(1702)10月15日建立。相楽郡の寺嶋勝永による奉納。昔は高座にあり、ここに移された。" }, "geometry": { "type": "Point", "coordinates": [ 135.834619718496356, 34.704212150334989 ] } },
{ "type": "Feature", "properties": { "fid": 52, "name": "六字名号石塔婆", "ruby": null, "type": "石塔婆", "image": "Saifukuji-Nara-Myogo.jpg", "description": "元禄15年(1702)10月15日建立。相楽郡の寺嶋勝永による奉納。昔は高座にあり、ここに移された。" }, "geometry": { "type": "Point", "coordinates": [ 135.834645127624128, 34.704215952305354 ] } },
{ "type": "Feature", "properties": { "fid": 53, "name": "ひたちみち道標", "ruby": null, "type": "道標", "image": null, "description": "高さ60cm、幅20cm x 18cm。元は奈良豆比古神社と西福寺の間の、狭い旧道にあったらしい。明治に「善城寺」を壊した際に埋まったのか、西福寺の壁を修理した際、土の中から出てきた。それを現在の場所に移したもの。法連町の「常陸神社」への道標。" }, "geometry": { "type": "Point", "coordinates": [ 135.834457512814396, 34.70417694626429 ] } },
{ "type": "Feature", "properties": { "fid": 54, "name": "弁財天社", "ruby": null, "type": "末社", "image": "Naratsuhiko-Jinja-Benten.jpg", "description": "奈良豆比古神社末社。寛政3年(1791)の『大和名所図会』では、境内に描かれていない。町内小字に「弁財天山」があるが、かつてはそちらに祀られていたものが遷されたのかもしれない。" }, "geometry": { "type": "Point", "coordinates": [ 135.834409095252283, 34.704599915611112 ] } },
{ "type": "Feature", "properties": { "fid": 55, "name": "毘沙門天社", "ruby": null, "type": "末社", "image": "Naratsuhiko-Jinja-Bishamon.jpg", "description": "奈良豆比古神社末社。寛政3年(1791)の『大和名所図会』では、境内に描かれていない。町内小字に「毘沙門堂」があるが、かつてはそちらに祀られていたものが遷されたのかもしれない。" }, "geometry": { "type": "Point", "coordinates": [ 135.834211174709054, 34.704499538948369 ] } },
{ "type": "Feature", "properties": { "fid": 56, "name": "恵比須社", "ruby": null, "type": "末社", "image": "Naratsuhiko-Jinja-Ebisu.jpg", "description": "奈良豆比古神社末社。寛政3年(1791)の『大和名所図会』では、境内に描かれていない。" }, "geometry": { "type": "Point", "coordinates": [ 135.834226946734873, 34.704433898465098 ] } },
{ "type": "Feature", "properties": { "fid": 57, "name": "福の神社", "ruby": null, "type": "末社", "image": "Naratsuhiko-Jinja-Fukunokami.jpg", "description": "奈良豆比古神社末社。寛政3年(1791)の『大和名所図会』では、境内に描かれていない。" }, "geometry": { "type": "Point", "coordinates": [ 135.834178415216144, 34.704586684818238 ] } },
{ "type": "Feature", "properties": { "fid": 58, "name": "石瓶神社", "ruby": "いしがめじんじゃ", "type": "末社", "image": "Naratsuhiko-Jinja-Ishigame.jpg", "description": "通称「齒神さん」。奈良豆比古神社末社。寛政3年(1791)の『大和名所図会』では、境内に描かれていない。" }, "geometry": { "type": "Point", "coordinates": [ 135.833982828742762, 34.704623016965698 ] } },
{ "type": "Feature", "properties": { "fid": 59, "name": "樟の巨樹", "ruby": null, "type": "神木", "image": "Naratsuhiko-Jinja-Kusu.jpg", "description": "県指定天然記念物で、樹高約30m。古色蒼然たる樹相千歳樟。" }, "geometry": { "type": "Point", "coordinates": [ 135.833807889087893, 34.704111476501971 ] } }
]
}
