{
"type": "FeatureCollection",
"name": "narasaka_pois",
"crs": { "type": "name", "properties": { "name": "urn:ogc:def:crs:OGC:1.3:CRS84" } },
"features": [
{ "type": "Feature", "properties": { "fid": 1, "name": "黄金畑", "ruby": "こがねばた", "type": "地名", "image": null }, "geometry": { "type": "Point", "coordinates": [ 135.832843652964982, 34.702290811489448 ] } },
{ "type": "Feature", "properties": { "fid": 2, "name": "清水池", "ruby": "しみずいけ", "type": "池跡", "image": null }, "geometry": { "type": "Point", "coordinates": [ 135.833884767201852, 34.7026531385483 ] } },
{ "type": "Feature", "properties": { "fid": 3, "name": "平野", "ruby": "ひらの", "type": "地名", "image": null }, "geometry": { "type": "Point", "coordinates": [ 135.837444112159318, 34.704045748036052 ] } },
{ "type": "Feature", "properties": { "fid": 4, "name": "亀の池", "ruby": "かめのいけ", "type": "池跡", "image": null }, "geometry": { "type": "Point", "coordinates": [ 135.837545028384369, 34.701477429696652 ] } },
{ "type": "Feature", "properties": { "fid": 5, "name": "瓢箪池", "ruby": "ひょうたんいけ", "type": "池跡", "image": null }, "geometry": { "type": "Point", "coordinates": [ 135.83228772380528, 34.707446816957216 ] } },
{ "type": "Feature", "properties": { "fid": 6, "name": "生田池", "ruby": "いけたいけ", "type": "池跡", "image": null }, "geometry": { "type": "Point", "coordinates": [ 135.829995418778566, 34.706275793644124 ] } },
{ "type": "Feature", "properties": { "fid": 7, "name": "万歳池", "ruby": "まんざいいけ", "type": "池跡", "image": null }, "geometry": { "type": "Point", "coordinates": [ 135.834042205801808, 34.706217932016813 ] } },
{ "type": "Feature", "properties": { "fid": 8, "name": "車谷", "ruby": "くるまたに", "type": "地名", "image": null }, "geometry": { "type": "Point", "coordinates": [ 135.810171677245648, 34.701890969566257 ] } },
{ "type": "Feature", "properties": { "fid": 9, "name": "沢芝池", "ruby": "さわしばいけ", "type": "池跡", "image": null }, "geometry": { "type": "Point", "coordinates": [ 135.834511450182163, 34.701277989553603 ] } },
{ "type": "Feature", "properties": { "fid": 10, "name": "南久保町の地蔵尊", "ruby": null, "type": "地蔵", "image": "jizodo_narasakacho.jpg" }, "geometry": { "type": "Point", "coordinates": [ 135.834396271293429, 34.702391127555728 ] } },
{ "type": "Feature", "properties": { "fid": 11, "name": "立江地蔵尊", "ruby": null, "type": "地蔵", "image": "tatsue_jizoson.jpg" }, "geometry": { "type": "Point", "coordinates": [ 135.835313079380768, 34.702257564797648 ] } },
{ "type": "Feature", "properties": { "fid": 12, "name": "大日如来尊", "ruby": null, "type": "如来", "image": "narasaka_tatsue_entrance_jizo.jpg" }, "geometry": { "type": "Point", "coordinates": [ 135.83537147759705, 34.702221105737031 ] } },
{ "type": "Feature", "properties": { "fid": 13, "name": "奈良阪配水場前の地蔵尊", "ruby": null, "type": "地蔵", "image": "IMG_8240.jpg" }, "geometry": { "type": "Point", "coordinates": [ 135.834995536290592, 34.70316921972281 ] } },
{ "type": "Feature", "properties": { "fid": 14, "name": "児川地蔵尊", "ruby": null, "type": "地蔵", "image": "kogawa_jizoson.jpg" }, "geometry": { "type": "Point", "coordinates": [ 135.835193648442186, 34.701666276267709 ] } },
{ "type": "Feature", "properties": { "fid": 15, "name": "元勝風谷の地蔵尊", "ruby": null, "type": "地蔵", "image": "IMG_8224.jpg" }, "geometry": { "type": "Point", "coordinates": [ 135.834468827989838, 34.701136737620473 ] } },
{ "type": "Feature", "properties": { "fid": 16, "name": "奥の垣内の地蔵尊", "ruby": null, "type": "地蔵", "image": "IMG_8246.jpg" }, "geometry": { "type": "Point", "coordinates": [ 135.83405404520289, 34.704040654811898 ] } },
{ "type": "Feature", "properties": { "fid": 17, "name": "平の町・北の町の常夜灯と地蔵尊", "ruby": null, "type": "地蔵", "image": "jizo_near_narazuhiko_shrine_light.jpg" }, "geometry": { "type": "Point", "coordinates": [ 135.834731731723849, 34.704843951220127 ] } },
{ "type": "Feature", "properties": { "fid": 18, "name": "勝風谷の地蔵尊", "ruby": null, "type": "地蔵", "image": "IMG_0328.jpg" }, "geometry": { "type": "Point", "coordinates": [ 135.831112374367279, 34.701808558571202 ] } },
{ "type": "Feature", "properties": { "fid": 19, "name": "黒髪山稲荷の地蔵堂", "ruby": null, "type": "地蔵", "image": "kurokami_inari_jizo.jpg" }, "geometry": { "type": "Point", "coordinates": [ 135.82566, 34.7017 ] } },
{ "type": "Feature", "properties": { "fid": 20, "name": "黒住大明神など", "ruby": null, "type": "石塚", "image": "kurozumi_daimyojin_etc.jpg" }, "geometry": { "type": "Point", "coordinates": [ 135.825701, 34.70172 ] } },
{ "type": "Feature", "properties": { "fid": 21, "name": "黒髪山稲荷神社", "ruby": null, "type": "神社", "image": "kurokamiyama_inari_torii.jpg" }, "geometry": { "type": "Point", "coordinates": [ 135.825772, 34.701773 ] } },
{ "type": "Feature", "properties": { "fid": 22, "name": "奈保地蔵尊", "ruby": null, "type": "地蔵", "image": "19219.jpg" }, "geometry": { "type": "Point", "coordinates": [ 135.829187112925695, 34.70393770717353 ] } },
{ "type": "Feature", "properties": { "fid": 23, "name": "平の野・北向きの地蔵尊", "ruby": null, "type": "地蔵", "image": "19366.jpg" }, "geometry": { "type": "Point", "coordinates": [ 135.836255638214539, 34.704280085621157 ] } },
{ "type": "Feature", "properties": { "fid": 24, "name": "奈良豆比古神社", "ruby": null, "type": "神社", "image": "Naratsuhiko-Jinja-Honden.jpg" }, "geometry": { "type": "Point", "coordinates": [ 135.834032181601145, 34.704370509754575 ] } },
{ "type": "Feature", "properties": { "fid": 25, "name": "西福寺", "ruby": null, "type": "寺院", "image": "Saifukuji-Nara-Sanmon.jpg" }, "geometry": { "type": "Point", "coordinates": [ 135.834303420496923, 34.704169858136162 ] } },
{ "type": "Feature", "properties": { "fid": 26, "name": "元明天皇陵", "ruby": null, "type": "陵墓", "image": "The_Tomb_of_Empress_Genmei.jpg" }, "geometry": { "type": "Point", "coordinates": [ 135.829666495760506, 34.705058148536402 ] } },
{ "type": "Feature", "properties": { "fid": 27, "name": "元正天皇陵", "ruby": null, "type": "陵墓", "image": "Tomb_of_Empress_Gensho.jpg" }, "geometry": { "type": "Point", "coordinates": [ 135.826209183604306, 34.705783736243632 ] } },
{ "type": "Feature", "properties": { "fid": 28, "name": "平野路", "ruby": null, "type": "道", "image": null }, "geometry": { "type": "Point", "coordinates": [ 135.836032157361245, 34.704603966453078 ] } },
{ "type": "Feature", "properties": { "fid": 29, "name": "ぐれぐれ坂", "ruby": null, "type": "道", "image": null }, "geometry": { "type": "Point", "coordinates": [ 135.833213817384689, 34.704721886495825 ] } },
{ "type": "Feature", "properties": { "fid": 30, "name": "出合い橋", "ruby": null, "type": "橋", "image": null }, "geometry": { "type": "Point", "coordinates": [ 135.81987729174898, 34.709572697441139 ] } },
{ "type": "Feature", "properties": { "fid": 31, "name": "坂下の河清山", "ruby": null, "type": "山", "image": null }, "geometry": { "type": "Point", "coordinates": [ 135.833860475808166, 34.707944763176222 ] } },
{ "type": "Feature", "properties": { "fid": 32, "name": "シャク井戸", "ruby": null, "type": "池跡", "image": null }, "geometry": { "type": "Point", "coordinates": [ 135.835563365399224, 34.705019532598719 ] } },
{ "type": "Feature", "properties": { "fid": 33, "name": "金春塚", "ruby": "こんぱるづか", "type": "塚", "image": null }, "geometry": { "type": "Point", "coordinates": [ 135.833275035446349, 34.707530597190193 ] } },
{ "type": "Feature", "properties": { "fid": 34, "name": "堂の池", "ruby": null, "type": "池跡", "image": null }, "geometry": { "type": "Point", "coordinates": [ 135.834412339882334, 34.704564969474745 ] } },
{ "type": "Feature", "properties": { "fid": 35, "name": "東谷池", "ruby": "ひがしたにいけ", "type": "池跡", "image": null }, "geometry": { "type": "Point", "coordinates": [ 135.839157106515387, 34.704599637429205 ] } },
{ "type": "Feature", "properties": { "fid": 36, "name": "狼谷池", "ruby": "おおかみたにいけ", "type": "池跡", "image": null }, "geometry": { "type": "Point", "coordinates": [ 135.837831673229289, 34.709184549486835 ] } },
{ "type": "Feature", "properties": { "fid": 37, "name": "安永二年(1773)道標", "ruby": null, "type": "道標", "image": null }, "geometry": { "type": "Point", "coordinates": [ 135.846479993378097, 34.705564639572664 ] } },
{ "type": "Feature", "properties": { "fid": 38, "name": "弘化四年(1847)道標", "ruby": null, "type": "道標", "image": null }, "geometry": { "type": "Point", "coordinates": [ 135.834467012844073, 34.704655644649101 ] } },
{ "type": "Feature", "properties": { "fid": 39, "name": "立石", "ruby": "たていし", "type": "地名", "image": null }, "geometry": { "type": "Point", "coordinates": [ 135.846351431674719, 34.705563061896122 ] } },
{ "type": "Feature", "properties": { "fid": 40, "name": "釜屋辻子", "ruby": null, "type": "道", "image": null }, "geometry": { "type": "Point", "coordinates": [ 135.834667709756928, 34.70372442661867 ] } },
{ "type": "Feature", "properties": { "fid": 41, "name": "鹿川隧道", "ruby": null, "type": "道", "image": null }, "geometry": { "type": "Point", "coordinates": [ 135.828510171888269, 34.709678585285616 ] } },
{ "type": "Feature", "properties": { "fid": 42, "name": "テエヤン", "ruby": null, "type": "店", "image": null }, "geometry": { "type": "Point", "coordinates": [ 135.83372980096533, 34.705570559283224 ] } },
{ "type": "Feature", "properties": { "fid": 43, "name": "黒髪大明神道標", "ruby": null, "type": "道標", "image": null }, "geometry": { "type": "Point", "coordinates": [ 135.834834002195578, 34.70371474265081 ] } },
{ "type": "Feature", "properties": { "fid": 44, "name": "青葉台ゴルフ場地蔵堂", "ruby": null, "type": "地蔵", "image": "IMG_0698.jpg" }, "geometry": { "type": "Point", "coordinates": [ 135.831617999778985, 34.712175584508721 ] } },
{ "type": "Feature", "properties": { "fid": 45, "name": "県道沿いの地蔵", "ruby": null, "type": "地蔵", "image": "19359.jpg" }, "geometry": { "type": "Point", "coordinates": [ 135.835359369049655, 34.704314546256533 ] } }
]
}
